[
    {
        "id": 8224780,
        "name": "Cradley Heath",
        "state": "",
        "country": "GB",
        "coord": {
            "lon": -2.08212,
            "lat": 52.472141
        }
    },
    {
        "id": 8224782,
        "name": "Shirley",
        "state": "",
        "country": "GB",
        "coord": {
            "lon": -1.81952,
            "lat": 52.41074
        }
    },
    {
        "id": 8224783,
        "name": "Stanley",
        "state": "",
        "country": "GB",
        "coord": {
            "lon": -1.69846,
            "lat": 54.867962
        }
    },
    {
        "id": 8224784,
        "name": "Stockton Heath",
        "state": "",
        "country": "GB",
        "coord": {
            "lon": -2.57406,
            "lat": 53.370838
        }
    },
    {
        "id": 8224785,
        "name": "Waterloo",
        "state": "",
        "country": "GB",
        "coord": {
            "lon": -3.03017,
            "lat": 53.474541
        }
    },
    {
        "id": 8224933,
        "name": "PAJOK Pogee,",
        "state": "",
        "country": "SS",
        "coord": {
            "lon": 32.517319,
            "lat": 3.76763
        }
    },
    {
        "id": 8224935,
        "name": "Magwi County",
        "state": "",
        "country": "SS",
        "coord": {
            "lon": 32.301479,
            "lat": 4.12532
        }
    },
    {
        "id": 8226430,
        "name": "Dongji",
        "state": "",
        "country": "CN",
        "coord": {
            "lon": 122.680702,
            "lat": 30.1959
        }
    },
    {
        "id": 8226876,
        "name": "Longqiu",
        "state": "",
        "country": "CN",
        "coord": {
            "lon": 119.512741,
            "lat": 32.829189
        }
    },
    {
        "id": 8226906,
        "name": "Situ",
        "state": "",
        "country": "CN",
        "coord": {
            "lon": 119.637779,
            "lat": 32.888531
        }
    },
    {
        "id": 8227002,
        "name": "Jiulonghu",
        "state": "",
        "country": "CN",
        "coord": {
            "lon": 121.560364,
            "lat": 30.04281
        }
    },
    {
        "id": 8235911,
        "name": "Xinshao",
        "state": "",
        "country": "CN",
        "coord": {
            "lon": 113.606911,
            "lat": 24.808929
        }
    },
    {
        "id": 8246755,
        "name": "Yangshan",
        "state": "",
        "country": "CN",
        "coord": {
            "lon": 122.076851,
            "lat": 30.59416
        }
    },
    {
        "id": 8247183,
        "name": "Borovlyany",
        "state": "",
        "country": "BY",
        "coord": {
            "lon": 27.6754,
            "lat": 54.002201
        }
    },
    {
        "id": 8247406,
        "name": "Lyeskawka",
        "state": "",
        "country": "BY",
        "coord": {
            "lon": 27.7108,
            "lat": 54.002399
        }
    },
    {
        "id": 8247407,
        "name": "Lyasny",
        "state": "",
        "country": "BY",
        "coord": {
            "lon": 27.696301,
            "lat": 54.007198
        }
    },
    {
        "id": 8247409,
        "name": "Bal’shavik",
        "state": "",
        "country": "BY",
        "coord": {
            "lon": 27.5669,
            "lat": 54.003601
        }
    },
    {
        "id": 8256205,
        "name": "Usiazh",
        "state": "",
        "country": "BY",
        "coord": {
            "lon": 28.006981,
            "lat": 54.075981
        }
    },
    {
        "id": 8256270,
        "name": "Октябрьский",
        "state": "",
        "country": "BY",
        "coord": {
            "lon": 28.19813,
            "lat": 54.040588
        }
    },
    {
        "id": 8259949,
        "name": "Vallenar",
        "state": "",
        "country": "CL",
        "coord": {
            "lon": -70.255508,
            "lat": -28.51576
        }
    },
    {
        "id": 8260052,
        "name": "Pontyclun",
        "state": "",
        "country": "GB",
        "coord": {
            "lon": -3.39145,
            "lat": 51.521622
        }
    },
    {
        "id": 8260056,
        "name": "Pentre",
        "state": "",
        "country": "GB",
        "coord": {
            "lon": -3.49133,
            "lat": 51.654289
        }
    },
    {
        "id": 8260059,
        "name": "Catterick Garrison",
        "state": "",
        "country": "GB",
        "coord": {
            "lon": -1.72232,
            "lat": 54.37748
        }
    },
    {
        "id": 8260172,
        "name": "West Greenwich",
        "state": "RI",
        "country": "US",
        "coord": {
            "lon": -71.660042,
            "lat": 41.637001
        }
    },
    {
        "id": 8260265,
        "name": "Buutuo",
        "state": "",
        "country": "LR",
        "coord": {
            "lon": -8.3428,
            "lat": 6.8275
        }
    },
    {
        "id": 8260318,
        "name": "Shanjeev Home",
        "state": "",
        "country": "LK",
        "coord": {
            "lon": 81.84198,
            "lat": 7.38216
        }
    },
    {
        "id": 8260661,
        "name": "Emar",
        "state": "",
        "country": "RU",
        "coord": {
            "lon": 132.156433,
            "lat": 43.20417
        }
    },
    {
        "id": 8261129,
        "name": "Antofagasta",
        "state": "",
        "country": "CL",
        "coord": {
            "lon": -69.409691,
            "lat": -24.27389
        }
    },
    {
        "id": 8261417,
        "name": "Recoleta",
        "state": "",
        "country": "CL",
        "coord": {
            "lon": -70.636383,
            "lat": -33.40881
        }
    },
    {
        "id": 8277210,
        "name": "Beldibi",
        "state": "",
        "country": "TR",
        "coord": {
            "lon": 30.707411,
            "lat": 40.592731
        }
    },
    {
        "id": 10722858.0,
        "name": "Forsytheganj",
        "state": "",
        "country": "BY",
        "coord": {
            "lon": 29.733333,
            "lat": 52.633333
        }
    },
    {
        "id": 71296900.0,
        "name": "Голубинка",
        "state": "",
        "country": "UA",
        "coord": {
            "lon": 33.92,
            "lat": 44.59
        }
    },
    {
        "id": 102908597.0,
        "name": "Gerton",
        "state": "",
        "country": "US",
        "coord": {
            "lon": -82.348056,
            "lat": 35.479167
        }
    }
]
